[
  {
    "name": "Crystal Palace Reptiles",
    "town": "London",
    "postcode": "SE19 3AF",
    "rating": 4.8,
    "website": "https://www.crystalpalacereptiles.com",
    "lat": 51.4231,
    "lon": -0.0865,
    "region": "London",
    "map": "https://www.google.com/maps/search/Crystal+Palace+Reptiles+SE19+3AF"
  },
  {
    "name": "Jungle Reptiles",
    "town": "Bracknell",
    "postcode": "RG42 6EJ",
    "rating": 5.0,
    "website": "https://www.junglereptiles.uk",
    "lat": 51.417,
    "lon": -0.7582,
    "region": "South East",
    "map": "https://www.google.com/maps/search/Jungle+Reptiles+RG42+6EJ"
  },
  {
    "name": "Slitherin Reptiles",
    "town": "Leicester",
    "postcode": "LE1 4SA",
    "rating": 4.7,
    "website": "https://www.slitherinreptiles.com",
    "lat": 52.6369,
    "lon": -1.1398,
    "region": "East Midlands",
    "map": "https://www.google.com/maps/search/Slitherin+Reptiles+LE1+4SA"
  },
  {
    "name": "Internet Reptile",
    "town": "Nottingham",
    "postcode": "NG7 7FN",
    "rating": 4.6,
    "website": "https://www.internetreptile.com",
    "lat": 52.9548,
    "lon": -1.1581,
    "region": "East Midlands",
    "map": "https://www.google.com/maps/search/Internet+Reptile+NG7+7FN"
  },
  {
    "name": "Blackpool Reptiles & Aquatics",
    "town": "Blackpool",
    "postcode": "FY1 6ES",
    "rating": 4.7,
    "website": "https://www.blackpoolreptiles.co.uk",
    "lat": 53.8142,
    "lon": -3.0501,
    "region": "North West",
    "map": "https://www.google.com/maps/search/Blackpool+Reptiles+FY1+6ES"
  },
  {
    "name": "Reptile Cymru",
    "town": "Cardiff",
    "postcode": "CF11 6RL",
    "rating": 4.6,
    "website": "https://www.reptilecymru.co.uk",
    "lat": 51.477,
    "lon": -3.173,
    "region": "Wales",
    "map": "https://www.google.com/maps/search/Reptile+Cymru+CF11+6RL"
  },
  {
    "name": "Dearne Valley Pets",
    "town": "Wombwell, Barnsley",
    "postcode": "S73 8DJ",
    "rating": 4.9,
    "website": "https://www.dearnevalleypetcentre.com",
    "lat": 53.5177,
    "lon": -1.3952,
    "region": "Yorkshire & Humber",
    "map": "https://www.google.com/maps/search/Dearne+Valley+Pets+S73+8DJ"
  },
  {
    "name": "Northampton Reptile Centre",
    "town": "Northampton",
    "postcode": "NN5 5DA",
    "rating": 4.7,
    "website": "https://www.reptilecentre.com",
    "lat": 52.2538,
    "lon": -0.8777,
    "region": "East Midlands",
    "map": "https://www.google.com/maps/search/Northampton+Reptile+Centre+NN5+5DA"
  },
  {
    "name": "Pro-Rep",
    "town": "Ongar, Essex",
    "postcode": "CM5 0EN",
    "rating": 4.4,
    "website": "https://www.pro-rep.co.uk",
    "lat": 51.731,
    "lon": 0.26,
    "region": "East of England",
    "map": "https://www.google.com/maps/search/Pro-Rep+CM5+0EN"
  },
  {
    "name": "Natures Grub",
    "town": "Fakenham, Norfolk",
    "postcode": "NR21 8HW",
    "rating": 4.5,
    "website": "https://www.naturesgrub.co.uk",
    "lat": 52.82,
    "lon": 0.833,
    "region": "East of England",
    "map": "https://www.google.com/maps/search/Natures+Grub+NR21+8HW"
  },
    {
      "name": "Birmingham Reptiles & Pets",
      "town": "Birmingham",
      "postcode": "B23 7LX",
      "rating": 4.1,
      "website": "https://www.birminghamreptiles.co.uk",
      "phone": "+44 121 386 1160",
      "lat": 52.5417,
      "lon": -1.8220,
      "region": "West Midlands",
      "map": "https://www.google.com/maps/search/274+Slade+Rd,+Birmingham+B23+7LX",
      "notes": "Family-run since 1992, full-time reptile staff, boarding services."
    },
    {
      "name": "Snakes 'n' Adders",
      "town": "Sheffield",
      "postcode": "S12 2AG",
      "rating": 4.8,
      "website": "https://www.snakesnaddersonline.co.uk",
      "phone": "+44 114 265 8299",
      "lat": 53.3614,
      "lon": -1.4412,
      "region": "Yorkshire & Humber",
      "map": "https://www.google.com/maps/search/39-41+Mansfield+Road,+Sheffield+S12+2AG",
      "notes": "Premier reptile centre since 2000, trusted by vets and zoos, RRK member."
    },
    {
  "name": "Dragon Aquatics",
  "town": "Paisley",
  "postcode": "PA1 2BX",
  "rating": 4.8,
  "website": null,
  "phone": null,
  "lat": 55.8470,
  "lon": -4.4234,
  "region": "Scotland",
  "map": "https://www.google.com/maps/search/Dragon+Aquatics+Paisley",
  "notes": "4.8★ on Google (288 reviews); praised for helpful staff, clean store, quality reptiles." 
},
        {
      "name": "Primitive Pets",
      "town": "Ossett",
      "postcode": "WF5 8AD",
      "rating": 5.0,
      "website": "https://www.primitivepets.co.uk",
      "phone": "+44 1924 900303",
      "lat": 53.6840,
      "lon": -1.5470,
      "region": "Yorkshire & Humber",
      "map": "https://www.google.com/maps/search/Primitive+Pets+Ossett",
      "notes": "5.0★ on Google (approx. 19 reviews); exotic specialist & rescue."
    },
    {
      "name": "MMA Reptiles",
      "town": "Creswell (Worksop)",
      "postcode": "S80 4ES",
      "rating": 5.0,
      "website": "https://www.mmareptiles.co.uk",
      "phone": "+44 7467 415535",
      "lat": 53.2760,
      "lon": -1.2170,
      "region": "East Midlands",
      "map": "https://www.google.com/maps/search/28+Elmton+Rd,+Creswell+S80+4ES",
      "notes": "Open limited hours, dog‑friendly, online + in-store service."
    },
        {
      "name": "Nuneaton Reptiles & Exotics",
      "town": "Nuneaton",
      "postcode": "CV10 7NB",
      "rating": 4.9,
      "website": "https://www.nuneatonreptiles.co.uk",
      "phone": "024 7798 3286",
      "lat": 52.5235,
      "lon": -1.4694,
      "region": "West Midlands",
      "map": "https://www.google.com/maps/search/Nuneaton+Reptiles+%26+Exotics",
      "notes": "4.9★ on Google (100+ reviews); praised for knowledgeable, helpful staff." 
    },
    {
      "name": "Clubmoor Pets & Reptiles",
      "town": "Liverpool",
      "postcode": "L11 4BW",
      "rating": 4.85,
      "website": null,
      "phone": null,
      "lat": 53.4100,
      "lon": -2.8800,
      "region": "North West",
      "map": "https://www.google.com/maps/search/Clubmoor+Pets+%26+Reptiles",
      "notes": "4.85★ from 600+ reviews aggregated on Cylex/Yably; praised for knowledgeable staff and range."
    },
    {
      "name": "Tropical Exotics",
      "town": "Rhuddlan",
      "postcode": "LL18 5UZ",
      "rating": 4.7,
      "website": "https://www.tropicalexotics.co.uk",
      "phone": "01745 314636",
      "lat": 53.2365,
      "lon": -3.4284,
      "region": "Wales",
      "map": "https://www.google.com/maps/search/Tropical+Exotics+Rhuddlan",
      "notes": "4.7★ on Google (Dozens of reviews); family‑run exotic pet shop & boarding."
    },
    {
      "name": "Reptilia Exotic Animal Rescue",
      "town": "Ossett",
      "postcode": "WF5 9BL",
      "rating": 4.5,
      "website": "https://www.reptiliaexoticanimalrescues.com",
      "phone": "+44 1924 694461",
      "lat": 53.6815,
      "lon": -1.5150,
      "region": "Yorkshire & Humber",
      "map": "https://www.google.com/maps/search/7+Towngate,+Ossett+WF5+9BL",
      "notes": "Rescue & rehoming centre, boarding, workshops, licensed exotic shop."
    }

]
