[
  {
    "name": "Crystal Palace Reptiles",
    "town": "London",
    "postcode": "SE19 2AA",
    "rating": 4.8,
    "lat": 51.4231,
    "lon": -0.0865,
    "website": "https://www.crystalpalacereptiles.com"
  },
  {
    "name": "Jungle Reptiles",
    "town": "Bracknell",
    "postcode": "RG42 6EJ",
    "rating": 5.0,
    "lat": 51.417,
    "lon": -0.7582,
    "website": "https://www.junglereptiles.uk"
  },
  {
    "name": "Slitherin Reptiles",
    "town": "Leicester",
    "postcode": "LE1 4SA",
    "rating": 4.7,
    "lat": 52.6369,
    "lon": -1.1398,
    "website": "https://www.slitherinreptiles.com"
  },
  {
    "name": "Perry's Reptile Centre",
    "town": "Burton-on-Trent",
    "postcode": "DE15 9RA",
    "rating": 4.5,
    "lat": 52.8,
    "lon": -1.636,
    "website": "https://www.perrysreptilecentre.co.uk"
  },
  {
    "name": "Internet Reptile",
    "town": "Nottingham",
    "postcode": "NG7 7FN",
    "rating": 4.6,
    "lat": 52.9548,
    "lon": -1.1581,
    "website": "https://www.internetreptile.com"
  },
  {
    "name": "Blackpool Reptiles & Aquatics",
    "town": "Blackpool",
    "postcode": "FY1 6ES",
    "rating": 4.7,
    "lat": 53.8142,
    "lon": -3.0501,
    "website": "https://www.blackpoolreptiles.co.uk"
  },
  {
    "name": "The Pet Lodge (Reptiles)",
    "town": "Eltham, London",
    "postcode": "SE9 6SP",
    "rating": 4.4,
    "lat": 51.4333,
    "lon": 0.0639,
    "website": "https://the-petlodge.co.uk/reptiles"
  },
  {
    "name": "Reptile Cymru",
    "town": "Cardiff",
    "postcode": "CF11 6RL",
    "rating": 4.6,
    "lat": 51.477,
    "lon": -3.173,
    "website": "https://www.reptilecymru.co.uk"
  },
  {
    "name": "Dearne Valley Pets",
    "town": "Wombwell, Barnsley",
    "postcode": "S73 8DJ",
    "rating": 4.9,
    "lat": 53.523,
    "lon": -1.3901,
    "website": ""
  },
  {
    "name": "Reptile World 10",
    "town": "Town 10",
    "postcode": "AA0 110",
    "rating": 4.0,
    "lat": 51.0,
    "lon": -1.0,
    "website": "https://www.reptileworld10.co.uk"
  },
  {
    "name": "Reptile World 11",
    "town": "Town 11",
    "postcode": "AA1 111",
    "rating": 4.0,
    "lat": 51.1,
    "lon": -1.1,
    "website": "https://www.reptileworld11.co.uk"
  },
  {
    "name": "Reptile World 12",
    "town": "Town 12",
    "postcode": "AA2 112",
    "rating": 4.1,
    "lat": 51.2,
    "lon": -1.2,
    "website": "https://www.reptileworld12.co.uk"
  },
  {
    "name": "Reptile World 13",
    "town": "Town 13",
    "postcode": "AA3 113",
    "rating": 4.2,
    "lat": 51.3,
    "lon": -1.3,
    "website": "https://www.reptileworld13.co.uk"
  },
  {
    "name": "Reptile World 14",
    "town": "Town 14",
    "postcode": "AA4 114",
    "rating": 4.2,
    "lat": 51.4,
    "lon": -1.4,
    "website": "https://www.reptileworld14.co.uk"
  },
  {
    "name": "Reptile World 15",
    "town": "Town 15",
    "postcode": "AA5 115",
    "rating": 4.2,
    "lat": 51.5,
    "lon": -1.5,
    "website": "https://www.reptileworld15.co.uk"
  },
  {
    "name": "Reptile World 16",
    "town": "Town 16",
    "postcode": "AA6 116",
    "rating": 4.3,
    "lat": 51.6,
    "lon": -1.6,
    "website": "https://www.reptileworld16.co.uk"
  },
  {
    "name": "Reptile World 17",
    "town": "Town 17",
    "postcode": "AA7 117",
    "rating": 4.3,
    "lat": 51.7,
    "lon": -1.7,
    "website": "https://www.reptileworld17.co.uk"
  },
  {
    "name": "Reptile World 18",
    "town": "Town 18",
    "postcode": "AA8 118",
    "rating": 4.4,
    "lat": 51.8,
    "lon": -1.8,
    "website": "https://www.reptileworld18.co.uk"
  },
  {
    "name": "Reptile World 19",
    "town": "Town 19",
    "postcode": "AA9 119",
    "rating": 4.5,
    "lat": 51.9,
    "lon": -1.9,
    "website": "https://www.reptileworld19.co.uk"
  },
  {
    "name": "Reptile World 20",
    "town": "Town 20",
    "postcode": "AA0 120",
    "rating": 4.0,
    "lat": 51.0,
    "lon": -1.0,
    "website": "https://www.reptileworld20.co.uk"
  },
  {
    "name": "Reptile World 21",
    "town": "Town 21",
    "postcode": "AA1 121",
    "rating": 4.0,
    "lat": 51.1,
    "lon": -1.1,
    "website": "https://www.reptileworld21.co.uk"
  },
  {
    "name": "Reptile World 22",
    "town": "Town 22",
    "postcode": "AA2 122",
    "rating": 4.1,
    "lat": 51.2,
    "lon": -1.2,
    "website": "https://www.reptileworld22.co.uk"
  },
  {
    "name": "Reptile World 23",
    "town": "Town 23",
    "postcode": "AA3 123",
    "rating": 4.2,
    "lat": 51.3,
    "lon": -1.3,
    "website": "https://www.reptileworld23.co.uk"
  },
  {
    "name": "Reptile World 24",
    "town": "Town 24",
    "postcode": "AA4 124",
    "rating": 4.2,
    "lat": 51.4,
    "lon": -1.4,
    "website": "https://www.reptileworld24.co.uk"
  },
  {
    "name": "Reptile World 25",
    "town": "Town 25",
    "postcode": "AA5 125",
    "rating": 4.2,
    "lat": 51.5,
    "lon": -1.5,
    "website": "https://www.reptileworld25.co.uk"
  },
  {
    "name": "Reptile World 26",
    "town": "Town 26",
    "postcode": "AA6 126",
    "rating": 4.3,
    "lat": 51.6,
    "lon": -1.6,
    "website": "https://www.reptileworld26.co.uk"
  },
  {
    "name": "Reptile World 27",
    "town": "Town 27",
    "postcode": "AA7 127",
    "rating": 4.3,
    "lat": 51.7,
    "lon": -1.7,
    "website": "https://www.reptileworld27.co.uk"
  },
  {
    "name": "Reptile World 28",
    "town": "Town 28",
    "postcode": "AA8 128",
    "rating": 4.4,
    "lat": 51.8,
    "lon": -1.8,
    "website": "https://www.reptileworld28.co.uk"
  },
  {
    "name": "Reptile World 29",
    "town": "Town 29",
    "postcode": "AA9 129",
    "rating": 4.5,
    "lat": 51.9,
    "lon": -1.9,
    "website": "https://www.reptileworld29.co.uk"
  },
  {
    "name": "Reptile World 30",
    "town": "Town 30",
    "postcode": "AA0 130",
    "rating": 4.0,
    "lat": 51.0,
    "lon": -1.0,
    "website": "https://www.reptileworld30.co.uk"
  },
  {
    "name": "Reptile World 31",
    "town": "Town 31",
    "postcode": "AA1 131",
    "rating": 4.0,
    "lat": 51.1,
    "lon": -1.1,
    "website": "https://www.reptileworld31.co.uk"
  },
  {
    "name": "Reptile World 32",
    "town": "Town 32",
    "postcode": "AA2 132",
    "rating": 4.1,
    "lat": 51.2,
    "lon": -1.2,
    "website": "https://www.reptileworld32.co.uk"
  },
  {
    "name": "Reptile World 33",
    "town": "Town 33",
    "postcode": "AA3 133",
    "rating": 4.2,
    "lat": 51.3,
    "lon": -1.3,
    "website": "https://www.reptileworld33.co.uk"
  },
  {
    "name": "Reptile World 34",
    "town": "Town 34",
    "postcode": "AA4 134",
    "rating": 4.2,
    "lat": 51.4,
    "lon": -1.4,
    "website": "https://www.reptileworld34.co.uk"
  },
  {
    "name": "Reptile World 35",
    "town": "Town 35",
    "postcode": "AA5 135",
    "rating": 4.2,
    "lat": 51.5,
    "lon": -1.5,
    "website": "https://www.reptileworld35.co.uk"
  },
  {
    "name": "Reptile World 36",
    "town": "Town 36",
    "postcode": "AA6 136",
    "rating": 4.3,
    "lat": 51.6,
    "lon": -1.6,
    "website": "https://www.reptileworld36.co.uk"
  },
  {
    "name": "Reptile World 37",
    "town": "Town 37",
    "postcode": "AA7 137",
    "rating": 4.3,
    "lat": 51.7,
    "lon": -1.7,
    "website": "https://www.reptileworld37.co.uk"
  },
  {
    "name": "Reptile World 38",
    "town": "Town 38",
    "postcode": "AA8 138",
    "rating": 4.4,
    "lat": 51.8,
    "lon": -1.8,
    "website": "https://www.reptileworld38.co.uk"
  },
  {
    "name": "Reptile World 39",
    "town": "Town 39",
    "postcode": "AA9 139",
    "rating": 4.5,
    "lat": 51.9,
    "lon": -1.9,
    "website": "https://www.reptileworld39.co.uk"
  },
  {
    "name": "Reptile World 40",
    "town": "Town 40",
    "postcode": "AA0 140",
    "rating": 4.0,
    "lat": 51.0,
    "lon": -1.0,
    "website": "https://www.reptileworld40.co.uk"
  },
  {
    "name": "Reptile World 41",
    "town": "Town 41",
    "postcode": "AA1 141",
    "rating": 4.0,
    "lat": 51.1,
    "lon": -1.1,
    "website": "https://www.reptileworld41.co.uk"
  },
  {
    "name": "Reptile World 42",
    "town": "Town 42",
    "postcode": "AA2 142",
    "rating": 4.1,
    "lat": 51.2,
    "lon": -1.2,
    "website": "https://www.reptileworld42.co.uk"
  },
  {
    "name": "Reptile World 43",
    "town": "Town 43",
    "postcode": "AA3 143",
    "rating": 4.2,
    "lat": 51.3,
    "lon": -1.3,
    "website": "https://www.reptileworld43.co.uk"
  },
  {
    "name": "Reptile World 44",
    "town": "Town 44",
    "postcode": "AA4 144",
    "rating": 4.2,
    "lat": 51.4,
    "lon": -1.4,
    "website": "https://www.reptileworld44.co.uk"
  },
  {
    "name": "Reptile World 45",
    "town": "Town 45",
    "postcode": "AA5 145",
    "rating": 4.2,
    "lat": 51.5,
    "lon": -1.5,
    "website": "https://www.reptileworld45.co.uk"
  },
  {
    "name": "Reptile World 46",
    "town": "Town 46",
    "postcode": "AA6 146",
    "rating": 4.3,
    "lat": 51.6,
    "lon": -1.6,
    "website": "https://www.reptileworld46.co.uk"
  },
  {
    "name": "Reptile World 47",
    "town": "Town 47",
    "postcode": "AA7 147",
    "rating": 4.3,
    "lat": 51.7,
    "lon": -1.7,
    "website": "https://www.reptileworld47.co.uk"
  },
  {
    "name": "Reptile World 48",
    "town": "Town 48",
    "postcode": "AA8 148",
    "rating": 4.4,
    "lat": 51.8,
    "lon": -1.8,
    "website": "https://www.reptileworld48.co.uk"
  },
  {
    "name": "Reptile World 49",
    "town": "Town 49",
    "postcode": "AA9 149",
    "rating": 4.5,
    "lat": 51.9,
    "lon": -1.9,
    "website": "https://www.reptileworld49.co.uk"
  },
  {
    "name": "Reptile World 50",
    "town": "Town 50",
    "postcode": "AA0 150",
    "rating": 4.0,
    "lat": 51.0,
    "lon": -1.0,
    "website": "https://www.reptileworld50.co.uk"
  },
  {
    "name": "Reptile World 51",
    "town": "Town 51",
    "postcode": "AA1 151",
    "rating": 4.0,
    "lat": 51.1,
    "lon": -1.1,
    "website": "https://www.reptileworld51.co.uk"
  },
  {
    "name": "Reptile World 52",
    "town": "Town 52",
    "postcode": "AA2 152",
    "rating": 4.1,
    "lat": 51.2,
    "lon": -1.2,
    "website": "https://www.reptileworld52.co.uk"
  },
  {
    "name": "Reptile World 53",
    "town": "Town 53",
    "postcode": "AA3 153",
    "rating": 4.2,
    "lat": 51.3,
    "lon": -1.3,
    "website": "https://www.reptileworld53.co.uk"
  },
  {
    "name": "Reptile World 54",
    "town": "Town 54",
    "postcode": "AA4 154",
    "rating": 4.2,
    "lat": 51.4,
    "lon": -1.4,
    "website": "https://www.reptileworld54.co.uk"
  },
  {
    "name": "Reptile World 55",
    "town": "Town 55",
    "postcode": "AA5 155",
    "rating": 4.2,
    "lat": 51.5,
    "lon": -1.5,
    "website": "https://www.reptileworld55.co.uk"
  },
  {
    "name": "Reptile World 56",
    "town": "Town 56",
    "postcode": "AA6 156",
    "rating": 4.3,
    "lat": 51.6,
    "lon": -1.6,
    "website": "https://www.reptileworld56.co.uk"
  },
  {
    "name": "Reptile World 57",
    "town": "Town 57",
    "postcode": "AA7 157",
    "rating": 4.3,
    "lat": 51.7,
    "lon": -1.7,
    "website": "https://www.reptileworld57.co.uk"
  },
  {
    "name": "Reptile World 58",
    "town": "Town 58",
    "postcode": "AA8 158",
    "rating": 4.4,
    "lat": 51.8,
    "lon": -1.8,
    "website": "https://www.reptileworld58.co.uk"
  },
  {
    "name": "Reptile World 59",
    "town": "Town 59",
    "postcode": "AA9 159",
    "rating": 4.5,
    "lat": 51.9,
    "lon": -1.9,
    "website": "https://www.reptileworld59.co.uk"
  },
  {
    "name": "Reptile World 60",
    "town": "Town 60",
    "postcode": "AA0 160",
    "rating": 4.0,
    "lat": 51.0,
    "lon": -1.0,
    "website": "https://www.reptileworld60.co.uk"
  },
  {
    "name": "Reptile World 61",
    "town": "Town 61",
    "postcode": "AA1 161",
    "rating": 4.0,
    "lat": 51.1,
    "lon": -1.1,
    "website": "https://www.reptileworld61.co.uk"
  },
  {
    "name": "Reptile World 62",
    "town": "Town 62",
    "postcode": "AA2 162",
    "rating": 4.1,
    "lat": 51.2,
    "lon": -1.2,
    "website": "https://www.reptileworld62.co.uk"
  },
  {
    "name": "Reptile World 63",
    "town": "Town 63",
    "postcode": "AA3 163",
    "rating": 4.2,
    "lat": 51.3,
    "lon": -1.3,
    "website": "https://www.reptileworld63.co.uk"
  },
  {
    "name": "Reptile World 64",
    "town": "Town 64",
    "postcode": "AA4 164",
    "rating": 4.2,
    "lat": 51.4,
    "lon": -1.4,
    "website": "https://www.reptileworld64.co.uk"
  },
  {
    "name": "Reptile World 65",
    "town": "Town 65",
    "postcode": "AA5 165",
    "rating": 4.2,
    "lat": 51.5,
    "lon": -1.5,
    "website": "https://www.reptileworld65.co.uk"
  },
  {
    "name": "Reptile World 66",
    "town": "Town 66",
    "postcode": "AA6 166",
    "rating": 4.3,
    "lat": 51.6,
    "lon": -1.6,
    "website": "https://www.reptileworld66.co.uk"
  },
  {
    "name": "Reptile World 67",
    "town": "Town 67",
    "postcode": "AA7 167",
    "rating": 4.3,
    "lat": 51.7,
    "lon": -1.7,
    "website": "https://www.reptileworld67.co.uk"
  },
  {
    "name": "Reptile World 68",
    "town": "Town 68",
    "postcode": "AA8 168",
    "rating": 4.4,
    "lat": 51.8,
    "lon": -1.8,
    "website": "https://www.reptileworld68.co.uk"
  },
  {
    "name": "Reptile World 69",
    "town": "Town 69",
    "postcode": "AA9 169",
    "rating": 4.5,
    "lat": 51.9,
    "lon": -1.9,
    "website": "https://www.reptileworld69.co.uk"
  },
  {
    "name": "Reptile World 70",
    "town": "Town 70",
    "postcode": "AA0 170",
    "rating": 4.0,
    "lat": 51.0,
    "lon": -1.0,
    "website": "https://www.reptileworld70.co.uk"
  },
  {
    "name": "Reptile World 71",
    "town": "Town 71",
    "postcode": "AA1 171",
    "rating": 4.0,
    "lat": 51.1,
    "lon": -1.1,
    "website": "https://www.reptileworld71.co.uk"
  },
  {
    "name": "Reptile World 72",
    "town": "Town 72",
    "postcode": "AA2 172",
    "rating": 4.1,
    "lat": 51.2,
    "lon": -1.2,
    "website": "https://www.reptileworld72.co.uk"
  },
  {
    "name": "Reptile World 73",
    "town": "Town 73",
    "postcode": "AA3 173",
    "rating": 4.2,
    "lat": 51.3,
    "lon": -1.3,
    "website": "https://www.reptileworld73.co.uk"
  },
  {
    "name": "Reptile World 74",
    "town": "Town 74",
    "postcode": "AA4 174",
    "rating": 4.2,
    "lat": 51.4,
    "lon": -1.4,
    "website": "https://www.reptileworld74.co.uk"
  },
  {
    "name": "Reptile World 75",
    "town": "Town 75",
    "postcode": "AA5 175",
    "rating": 4.2,
    "lat": 51.5,
    "lon": -1.5,
    "website": "https://www.reptileworld75.co.uk"
  },
  {
    "name": "Reptile World 76",
    "town": "Town 76",
    "postcode": "AA6 176",
    "rating": 4.3,
    "lat": 51.6,
    "lon": -1.6,
    "website": "https://www.reptileworld76.co.uk"
  },
  {
    "name": "Reptile World 77",
    "town": "Town 77",
    "postcode": "AA7 177",
    "rating": 4.3,
    "lat": 51.7,
    "lon": -1.7,
    "website": "https://www.reptileworld77.co.uk"
  },
  {
    "name": "Reptile World 78",
    "town": "Town 78",
    "postcode": "AA8 178",
    "rating": 4.4,
    "lat": 51.8,
    "lon": -1.8,
    "website": "https://www.reptileworld78.co.uk"
  },
  {
    "name": "Reptile World 79",
    "town": "Town 79",
    "postcode": "AA9 179",
    "rating": 4.5,
    "lat": 51.9,
    "lon": -1.9,
    "website": "https://www.reptileworld79.co.uk"
  },
  {
    "name": "Reptile World 80",
    "town": "Town 80",
    "postcode": "AA0 180",
    "rating": 4.0,
    "lat": 51.0,
    "lon": -1.0,
    "website": "https://www.reptileworld80.co.uk"
  },
  {
    "name": "Reptile World 81",
    "town": "Town 81",
    "postcode": "AA1 181",
    "rating": 4.0,
    "lat": 51.1,
    "lon": -1.1,
    "website": "https://www.reptileworld81.co.uk"
  },
  {
    "name": "Reptile World 82",
    "town": "Town 82",
    "postcode": "AA2 182",
    "rating": 4.1,
    "lat": 51.2,
    "lon": -1.2,
    "website": "https://www.reptileworld82.co.uk"
  },
  {
    "name": "Reptile World 83",
    "town": "Town 83",
    "postcode": "AA3 183",
    "rating": 4.2,
    "lat": 51.3,
    "lon": -1.3,
    "website": "https://www.reptileworld83.co.uk"
  },
  {
    "name": "Reptile World 84",
    "town": "Town 84",
    "postcode": "AA4 184",
    "rating": 4.2,
    "lat": 51.4,
    "lon": -1.4,
    "website": "https://www.reptileworld84.co.uk"
  },
  {
    "name": "Reptile World 85",
    "town": "Town 85",
    "postcode": "AA5 185",
    "rating": 4.2,
    "lat": 51.5,
    "lon": -1.5,
    "website": "https://www.reptileworld85.co.uk"
  },
  {
    "name": "Reptile World 86",
    "town": "Town 86",
    "postcode": "AA6 186",
    "rating": 4.3,
    "lat": 51.6,
    "lon": -1.6,
    "website": "https://www.reptileworld86.co.uk"
  },
  {
    "name": "Reptile World 87",
    "town": "Town 87",
    "postcode": "AA7 187",
    "rating": 4.3,
    "lat": 51.7,
    "lon": -1.7,
    "website": "https://www.reptileworld87.co.uk"
  },
  {
    "name": "Reptile World 88",
    "town": "Town 88",
    "postcode": "AA8 188",
    "rating": 4.4,
    "lat": 51.8,
    "lon": -1.8,
    "website": "https://www.reptileworld88.co.uk"
  },
  {
    "name": "Reptile World 89",
    "town": "Town 89",
    "postcode": "AA9 189",
    "rating": 4.5,
    "lat": 51.9,
    "lon": -1.9,
    "website": "https://www.reptileworld89.co.uk"
  },
  {
    "name": "Reptile World 90",
    "town": "Town 90",
    "postcode": "AA0 190",
    "rating": 4.0,
    "lat": 51.0,
    "lon": -1.0,
    "website": "https://www.reptileworld90.co.uk"
  },
  {
    "name": "Reptile World 91",
    "town": "Town 91",
    "postcode": "AA1 191",
    "rating": 4.0,
    "lat": 51.1,
    "lon": -1.1,
    "website": "https://www.reptileworld91.co.uk"
  },
  {
    "name": "Reptile World 92",
    "town": "Town 92",
    "postcode": "AA2 192",
    "rating": 4.1,
    "lat": 51.2,
    "lon": -1.2,
    "website": "https://www.reptileworld92.co.uk"
  },
  {
    "name": "Reptile World 93",
    "town": "Town 93",
    "postcode": "AA3 193",
    "rating": 4.2,
    "lat": 51.3,
    "lon": -1.3,
    "website": "https://www.reptileworld93.co.uk"
  },
  {
    "name": "Reptile World 94",
    "town": "Town 94",
    "postcode": "AA4 194",
    "rating": 4.2,
    "lat": 51.4,
    "lon": -1.4,
    "website": "https://www.reptileworld94.co.uk"
  },
  {
    "name": "Reptile World 95",
    "town": "Town 95",
    "postcode": "AA5 195",
    "rating": 4.2,
    "lat": 51.5,
    "lon": -1.5,
    "website": "https://www.reptileworld95.co.uk"
  },
  {
    "name": "Reptile World 96",
    "town": "Town 96",
    "postcode": "AA6 196",
    "rating": 4.3,
    "lat": 51.6,
    "lon": -1.6,
    "website": "https://www.reptileworld96.co.uk"
  },
  {
    "name": "Reptile World 97",
    "town": "Town 97",
    "postcode": "AA7 197",
    "rating": 4.3,
    "lat": 51.7,
    "lon": -1.7,
    "website": "https://www.reptileworld97.co.uk"
  },
  {
    "name": "Reptile World 98",
    "town": "Town 98",
    "postcode": "AA8 198",
    "rating": 4.4,
    "lat": 51.8,
    "lon": -1.8,
    "website": "https://www.reptileworld98.co.uk"
  },
  {
    "name": "Reptile World 99",
    "town": "Town 99",
    "postcode": "AA9 199",
    "rating": 4.5,
    "lat": 51.9,
    "lon": -1.9,
    "website": "https://www.reptileworld99.co.uk"
  },
  {
    "name": "Reptile World 100",
    "town": "Town 100",
    "postcode": "AA0 200",
    "rating": 4.0,
    "lat": 51.0,
    "lon": -1.0,
    "website": "https://www.reptileworld100.co.uk"
  }
]