[
  {
    "name": "Crystal Palace Reptiles",
    "town": "London",
    "postcode": "SE19 3AF",
    "rating": 4.8,
    "website": "https://www.crystalpalacereptiles.com",
    "lat": 51.4231,
    "lon": -0.0865,
    "region": "London",
    "map": "https://www.google.com/maps/search/Crystal+Palace+Reptiles+SE19+3AF"
  },
  {
    "name": "Jungle Reptiles",
    "town": "Bracknell",
    "postcode": "RG42 6EJ",
    "rating": 5.0,
    "website": "https://www.junglereptiles.uk",
    "lat": 51.417,
    "lon": -0.7582,
    "region": "South East",
    "map": "https://www.google.com/maps/search/Jungle+Reptiles+RG42+6EJ"
  },
  {
    "name": "Slitherin Reptiles",
    "town": "Leicester",
    "postcode": "LE1 4SA",
    "rating": 4.7,
    "website": "https://www.slitherinreptiles.com",
    "lat": 52.6369,
    "lon": -1.1398,
    "region": "East Midlands",
    "map": "https://www.google.com/maps/search/Slitherin+Reptiles+LE1+4SA"
  },
  {
    "name": "Internet Reptile",
    "town": "Nottingham",
    "postcode": "NG7 7FN",
    "rating": 4.6,
    "website": "https://www.internetreptile.com",
    "lat": 52.9548,
    "lon": -1.1581,
    "region": "East Midlands",
    "map": "https://www.google.com/maps/search/Internet+Reptile+NG7+7FN"
  },
  {
    "name": "Blackpool Reptiles & Aquatics",
    "town": "Blackpool",
    "postcode": "FY1 6ES",
    "rating": 4.7,
    "website": "https://www.blackpoolreptiles.co.uk",
    "lat": 53.8142,
    "lon": -3.0501,
    "region": "North West",
    "map": "https://www.google.com/maps/search/Blackpool+Reptiles+FY1+6ES"
  },
  {
    "name": "Reptile Cymru",
    "town": "Cardiff",
    "postcode": "CF11 6RL",
    "rating": 4.6,
    "website": "https://www.reptilecymru.co.uk",
    "lat": 51.477,
    "lon": -3.173,
    "region": "Wales",
    "map": "https://www.google.com/maps/search/Reptile+Cymru+CF11+6RL"
  },
  {
    "name": "Dearne Valley Pets",
    "town": "Wombwell, Barnsley",
    "postcode": "S73 8DJ",
    "rating": 4.9,
    "website": "https://www.dearnevalleypetcentre.com",
    "lat": 53.5177,
    "lon": -1.3952,
    "region": "Yorkshire & Humber",
    "map": "https://www.google.com/maps/search/Dearne+Valley+Pets+S73+8DJ"
  },
  {
    "name": "Northampton Reptile Centre",
    "town": "Northampton",
    "postcode": "NN5 5DA",
    "rating": 4.7,
    "website": "https://www.reptilecentre.com",
    "lat": 52.2538,
    "lon": -0.8777,
    "region": "East Midlands",
    "map": "https://www.google.com/maps/search/Northampton+Reptile+Centre+NN5+5DA"
  },
  {
    "name": "Pro-Rep",
    "town": "Ongar, Essex",
    "postcode": "CM5 0EN",
    "rating": 4.4,
    "website": "https://www.pro-rep.co.uk",
    "lat": 51.731,
    "lon": 0.26,
    "region": "East of England",
    "map": "https://www.google.com/maps/search/Pro-Rep+CM5+0EN"
  },
  {
    "name": "Natures Grub",
    "town": "Fakenham, Norfolk",
    "postcode": "NR21 8HW",
    "rating": 4.5,
    "website": "https://www.naturesgrub.co.uk",
    "lat": 52.82,
    "lon": 0.833,
    "region": "East of England",
    "map": "https://www.google.com/maps/search/Natures+Grub+NR21+8HW"
  }
]
